{"geocoding":{"version":"0.2","attribution":"http://pelias.mapzen.com/v1/attribution","query":{"text":"hop fastpass","parser":"addressit","tokens":["hop","fastpass"],"size":10,"private":false,"focus.point.lat":45.52,"focus.point.lon":-122.67,"lang":{"name":"English","iso6391":"en","iso6393":"eng","defaulted":false}},"engine":{"name":"Pelias","author":"Mapzen","version":"1.0"},"timestamp":1518988971903},"type":"FeatureCollection","features":[{"type":"Feature","geometry":{"type":"Point","coordinates":[-122.540281,45.428211]},"properties":{"id":"1723::TRIMET::fare","gid":"transit:fare:1723::TRIMET::fare","layer":"fare","source":"transit","source_id":"1723::trimet::fare","name":"Safeway (HOP Fastpass)","street":"12032 SE Sunnyside Rd","distance":14.386,"accuracy":"centroid","country":"United States","country_gid":"whosonfirst:country:85633793","country_a":"USA","region":"Oregon","region_gid":"whosonfirst:region:85688513","region_a":"OR","county":"Clackamas County","county_gid":"whosonfirst:county:102082213","continent":"North America","continent_gid":"whosonfirst:continent:102191575","label":"Safeway (HOP Fastpass), Clackamas County, OR, USA"}},{"type":"Feature","geometry":{"type":"Point","coordinates":[-122.869849,45.536113]},"properties":{"id":"1743::TRIMET::fare","gid":"transit:fare:1743::TRIMET::fare","layer":"fare","source":"transit","source_id":"1743::trimet::fare","name":"Safeway (HOP Fastpass)","street":"2177 NW 185th Ave","distance":15.714,"accuracy":"centroid","country":"United States","country_gid":"whosonfirst:country:85633793","country_a":"USA","region":"Oregon","region_gid":"whosonfirst:region:85688513","region_a":"OR","county":"Washington County","county_gid":"whosonfirst:county:102082215","locality":"Hillsboro","locality_gid":"whosonfirst:locality:101715839","continent":"North America","continent_gid":"whosonfirst:continent:102191575","label":"Safeway (HOP Fastpass), Hillsboro, OR, USA"}},{"type":"Feature","geometry":{"type":"Point","coordinates":[-122.557115,45.641238]},"properties":{"id":"2755::TRIMET::fare","gid":"transit:fare:2755::TRIMET::fare","layer":"fare","source":"transit","source_id":"2755::trimet::fare","name":"Safeway (HOP Fastpass)","street":"2615 NE 112th Ave","distance":16.099,"accuracy":"centroid","country":"United States","country_gid":"whosonfirst:country:85633793","country_a":"USA","region":"Washington","region_gid":"whosonfirst:region:85688623","region_a":"WA","county":"Clark County","county_gid":"whosonfirst:county:102084251","locality":"Vancouver","locality_gid":"whosonfirst:locality:101730071","neighbourhood":"Dean Meadows","neighbourhood_gid":"whosonfirst:neighbourhood:420548613","continent":"North America","continent_gid":"whosonfirst:continent:102191575","label":"Safeway (HOP Fastpass), Vancouver, WA, USA"}},{"type":"Feature","geometry":{"type":"Point","coordinates":[-122.790887,45.417138]},"properties":{"id":"2705::TRIMET::fare","gid":"transit:fare:2705::TRIMET::fare","layer":"fare","source":"transit","source_id":"2705::trimet::fare","name":"Las Jaras  (HOP Fastpass)","street":"14363 SW Pacific Hwy","distance":14.835,"accuracy":"centroid","country":"United States","country_gid":"whosonfirst:country:85633793","country_a":"USA","region":"Oregon","region_gid":"whosonfirst:region:85688513","region_a":"OR","county":"Washington County","county_gid":"whosonfirst:county:102082215","locality":"Tigard","locality_gid":"whosonfirst:locality:101715823","neighbourhood":"Bonita","neighbourhood_gid":"whosonfirst:neighbourhood:85806655","continent":"North America","continent_gid":"whosonfirst:continent:102191575","label":"Las Jaras  (HOP Fastpass), Tigard, OR, USA"}},{"type":"Feature","geometry":{"type":"Point","coordinates":[-122.690219,45.52157]},"properties":{"id":"2818::TRIMET::fare","gid":"transit:fare:2818::TRIMET::fare","layer":"fare","source":"transit","source_id":"2818::trimet::fare","name":"Express Market  (HOP Fastpass)","street":"742 SW 18th Ave","distance":1.589,"accuracy":"centroid","country":"United States","country_gid":"whosonfirst:country:85633793","country_a":"USA","region":"Oregon","region_gid":"whosonfirst:region:85688513","region_a":"OR","county":"Multnomah County","county_gid":"whosonfirst:county:102081631","locality":"Portland","locality_gid":"whosonfirst:locality:101715829","neighbourhood":"Goose Hollow","neighbourhood_gid":"whosonfirst:neighbourhood:85871479","continent":"North America","continent_gid":"whosonfirst:continent:102191575","label":"Express Market  (HOP Fastpass), Portland, OR, USA"}},{"type":"Feature","geometry":{"type":"Point","coordinates":[-122.579126,45.516731]},"properties":{"id":"2825::TRIMET::fare","gid":"transit:fare:2825::TRIMET::fare","layer":"fare","source":"transit","source_id":"2825::trimet::fare","name":"Henry's Market (HOP Fastpass)","street":"805 SE 82nd Ave","distance":7.11,"accuracy":"centroid","country":"United States","country_gid":"whosonfirst:country:85633793","country_a":"USA","region":"Oregon","region_gid":"whosonfirst:region:85688513","region_a":"OR","county":"Multnomah County","county_gid":"whosonfirst:county:102081631","locality":"Portland","locality_gid":"whosonfirst:locality:101715829","neighbourhood":"Montavilla","neighbourhood_gid":"whosonfirst:neighbourhood:85834889","continent":"North America","continent_gid":"whosonfirst:continent:102191575","label":"Henry's Market (HOP Fastpass), Portland, OR, USA"}},{"type":"Feature","geometry":{"type":"Point","coordinates":[-122.602873,45.626194]},"properties":{"id":"2802::TRIMET::fare","gid":"transit:fare:2802::TRIMET::fare","layer":"fare","source":"transit","source_id":"2802::trimet::fare","name":"Safeway (HOP Fastpass)","street":"6701 E Mill Plain Blvd","distance":12.914,"accuracy":"centroid","country":"United States","country_gid":"whosonfirst:country:85633793","country_a":"USA","region":"Washington","region_gid":"whosonfirst:region:85688623","region_a":"WA","county":"Clark County","county_gid":"whosonfirst:county:102084251","locality":"Vancouver","locality_gid":"whosonfirst:locality:101730071","neighbourhood":"Mill Plain Road","neighbourhood_gid":"whosonfirst:neighbourhood:420548849","continent":"North America","continent_gid":"whosonfirst:continent:102191575","label":"Safeway (HOP Fastpass), Vancouver, WA, USA"}},{"type":"Feature","geometry":{"type":"Point","coordinates":[-122.666669,45.648522]},"properties":{"id":"2766::TRIMET::fare","gid":"transit:fare:2766::TRIMET::fare","layer":"fare","source":"transit","source_id":"2766::trimet::fare","name":"Safeway (HOP Fastpass)","street":"3707 N Main St","distance":14.287,"accuracy":"centroid","country":"United States","country_gid":"whosonfirst:country:85633793","country_a":"USA","region":"Washington","region_gid":"whosonfirst:region:85688623","region_a":"WA","county":"Clark County","county_gid":"whosonfirst:county:102084251","locality":"Vancouver","locality_gid":"whosonfirst:locality:101730071","neighbourhood":"Chumasero Heights","neighbourhood_gid":"whosonfirst:neighbourhood:420548561","continent":"North America","continent_gid":"whosonfirst:continent:102191575","label":"Safeway (HOP Fastpass), Vancouver, WA, USA"}},{"type":"Feature","geometry":{"type":"Point","coordinates":[-122.531329,45.616947]},"properties":{"id":"2702::TRIMET::fare","gid":"transit:fare:2702::TRIMET::fare","layer":"fare","source":"transit","source_id":"2702::trimet::fare","name":"Safeway (HOP Fastpass)","street":"13719 SE Mill Plain Blvd","distance":15.274,"accuracy":"centroid","country":"United States","country_gid":"whosonfirst:country:85633793","country_a":"USA","region":"Washington","region_gid":"whosonfirst:region:85688623","region_a":"WA","county":"Clark County","county_gid":"whosonfirst:county:102084251","locality":"Vancouver","locality_gid":"whosonfirst:locality:101730071","neighbourhood":"Cascade Rest","neighbourhood_gid":"whosonfirst:neighbourhood:420548539","continent":"North America","continent_gid":"whosonfirst:continent:102191575","label":"Safeway (HOP Fastpass), Vancouver, WA, USA"}},{"type":"Feature","geometry":{"type":"Point","coordinates":[-122.497596,45.504629]},"properties":{"id":"2721::TRIMET::fare","gid":"transit:fare:2721::TRIMET::fare","layer":"fare","source":"transit","source_id":"2721::trimet::fare","name":"Smokers Zone (HOP Fastpass)","street":"16101 SE Division St","distance":13.58,"accuracy":"centroid","country":"United States","country_gid":"whosonfirst:country:85633793","country_a":"USA","region":"Oregon","region_gid":"whosonfirst:region:85688513","region_a":"OR","county":"Multnomah County","county_gid":"whosonfirst:county:102081631","locality":"Portland","locality_gid":"whosonfirst:locality:101715829","neighbourhood":"Centennial","neighbourhood_gid":"whosonfirst:neighbourhood:85893161","continent":"North America","continent_gid":"whosonfirst:continent:102191575","label":"Smokers Zone (HOP Fastpass), Portland, OR, USA"}}],"bbox":[-122.869849,45.417138,-122.497596,45.648522]}